,City,Country,Lat,Lng,Hotel Name
0,hobart,AU,-42.88,147.33,Hotel Grand Chancellor Hobart
1,faanui,PF,-16.48,-151.75,Blue Heaven Island
2,eureka,US,40.8,-124.16,Best Western Plus Bayshore Inn
3,cape town,ZA,-33.93,18.42,Atlanticview Cape Town Boutique Hotel
4,kodiak,US,57.79,-152.41,Shelikof Lodge
5,fukue,JP,32.69,128.84,GOTO TSUBAKI HOTEL
6,norman wells,CA,65.28,-126.83,Heritage Hotel
7,albany,US,42.6,-73.97,
8,jamestown,US,42.1,-79.24,Chautauqua Harbor Hotel
9,marigot,MF,18.07,-63.08,Mary's Boon Beach Resort & Spa
10,denpasar,ID,-8.65,115.22,Quest Hotel San Denpasar
11,ushuaia,AR,-54.8,-68.3,Los Cauquenes Resort & Spa
12,dikson,RU,73.51,80.55,
13,asfi,MA,32.3,-9.24,Atlantique Panorama
14,strangnas,SE,59.38,17.03,"Hotel Bishops Arms, Strängnäs"
15,hermanus,ZA,-34.42,19.23,7 on Marine
16,waipawa,NZ,-41.41,175.52,
17,komsomolskiy,UZ,40.43,71.72,Hotel Mehmon Saroy
18,puerto ayora,EC,-0.74,-90.35,Hotel Solymar Galapagos
19,padang,ID,-0.95,100.35,Mercure Padang
20,barrow,US,71.29,-156.79,Top of the World Hotel
21,rikitea,PF,-23.12,-134.97,Pension Maro'i
22,soyo,AO,-6.13,12.37,Kinwica
23,thanh hoa,VN,19.8,105.77,Vinpearl Hotel Thanh Hóa
24,shenjiamen,CN,29.96,122.3,Hilton Zhoushan
25,grand-santi,GF,4.25,-54.38,Hotel La Villa Couacou
26,torbay,CA,47.67,-52.73,
27,ilulissat,GL,69.22,-51.1,Hotel Arctic
28,dossor,KZ,47.53,52.98,"Gostinitsa Orpk ""Nauryz"""
29,cockburn town,TC,21.46,-71.14,Osprey Beach Hotel
30,saint george,US,37.1,-113.58,Red Lion Hotel & Conference Center St. George
31,punta arenas,CL,-53.15,-70.92,Patagonia B&B
32,port blair,IN,11.67,92.75,Sinclairs Bayview Port Blair
33,cherskiy,RU,68.75,161.3,
34,belyy yar,RU,53.6,91.39,
35,laguna,US,38.42,-121.42,Hilton Garden Inn Sacramento Elk Grove
36,chokurdakh,RU,70.63,147.92,
37,adrar,MR,20.5,-10.07,
38,muros,ES,42.78,-9.06,Hotel La Muradana
39,northam,GB,51.03,-4.22,The Village Inn
40,yizheng,CN,24.67,103.43,
41,porto novo,BJ,6.5,2.6,Résidence OUADADA
42,dingzhou,CN,38.51,115.0,GreenTree Inn Hebei DingZhou Railway Station Business Hotel
43,tautira,PF,-17.73,-149.15,
44,avarua,CK,-21.21,-159.78,The Edgewater Resort and Spa
45,kutum,SD,14.2,24.67,
46,bredasdorp,ZA,-34.53,20.04,Victoria Hotel - Bredasdorp
47,maxixe,MZ,-23.86,35.35,Hotel Casa Do Capitão
48,mataura,NZ,-46.19,168.86,Ellie's Villa
49,carnarvon,AU,-24.87,113.63,Coral Coast Tourist Park
50,vaini,TO,-21.2,-175.2,Paradise First Hotel
51,repino,RU,60.17,29.87,Staraya Mel'nitsa
52,vilhena,BR,-12.74,-60.15,Hotel Amazon Plazza Vilhena
53,vostok,RU,46.49,135.88,
54,petropavlovsk-kamchatskiy,RU,53.05,158.65,Hotel Comfort
55,makakilo city,US,21.35,-158.09,Marriott's Ko Olina Beach Club
56,castro,BR,-24.79,-50.01,Hotel Buganville Express
57,zhaoyuan,CN,37.36,120.4,Huangjin Hotel
58,atuona,PF,-9.8,-139.03,Simplicité Marquises
59,penzance,GB,50.12,-5.54,Beachfield Hotel
60,bluff,NZ,-46.6,168.33,Land's End Boutique Hotel
61,manyana,BW,-23.4,21.72,
62,hilo,US,19.73,-155.09,Grand Naniloa Hotel Hilo - a DoubleTree by Hilton
63,fuerte,PH,17.54,120.36,The Orange House - Vigan Villa
64,tinskoy,RU,56.15,96.92,
65,hithadhoo,MV,-0.6,73.08,Pebbles Inn
66,vila franca do campo,PT,37.72,-25.43,A Villa by the Sea
67,mar del plata,AR,-38.0,-57.56,Sheraton Mar del Plata Hotel
68,olinda,BR,-8.01,-34.86,Hotel 7 Colinas
69,pontalina,BR,-17.52,-49.45,Hotel Entre Rios
70,busselton,AU,-33.65,115.33,Broadwater Resort
71,port hedland,AU,-20.32,118.57,ibis Styles Port Hedland
72,meulaboh,ID,4.14,96.13,Hotel Meuligoe
73,patti,IN,31.28,74.86,
74,garowe,SO,8.41,48.48,Curubo Hotel
75,nouadhibou,MR,20.93,-17.03,HOtel Tasiast
76,ancud,CL,-41.87,-73.82,Panamericana Hotel Ancud
77,liverpool,GB,53.41,-2.98,Hard Days Night Hotel
78,kayanza,BI,-3.07,29.67,
79,yellowknife,CA,62.46,-114.35,The Explorer Hotel
80,bay roberts,CA,47.6,-53.26,The Bayside Bed and Breakfast
81,caravelas,BR,-17.71,-39.25,Pousada Liberdade
82,tiznit,MA,29.58,-9.5,
83,margate,GB,51.38,1.39,Sands Hotel Margate
84,lodwar,KE,3.12,35.6,The Cradle Tented Camp
85,tingo maria,PE,-9.29,-76.01,Shushupe Hotel
86,sorong,ID,-0.88,131.25,Vega Hotel Sorong
87,shingu,JP,33.73,135.98,Gran Hotel
88,lebu,CL,-37.62,-73.65,Hotel Plaza Lebu
89,bako,ET,5.78,36.57,Goh Hotel
90,rassvet,RU,46.83,40.75,
91,batagay,RU,67.63,134.63,
92,saskylakh,RU,71.92,114.08,
93,nikolskoye,RU,59.7,30.79,Tourist House - Sablino
94,teguise,ES,29.06,-13.56,HOTEL BOUTIQUE PALACIO ICO
95,pombas,CV,17.15,-25.02,Black Mamba
96,georgetown,MY,5.41,100.34,The Prestige Hotel Penang
97,unai,BR,-16.36,-46.91,Hotel Regente
98,bengkulu,ID,-3.8,102.27,Mercure Bengkulu
99,iqaluit,CA,63.75,-68.51,Frobisher Inn
100,byron bay,AU,-28.65,153.62,Bayhaven Lodge
101,barra patuca,HN,15.8,-84.28,
102,lermontovka,RU,47.15,134.34,
103,zhangye,CN,38.93,100.45,Zhang Ye Ding He Internationla Hotel
104,port alfred,ZA,-33.59,26.89,The Halyards Hotel
105,khatanga,RU,71.97,102.5,"Gostinitsa ""Zapolyar'ye"""
106,strezhevoy,RU,60.73,77.59,Kedr
107,avera,US,33.19,-82.53,
108,cayenne,GF,4.93,-52.33,Royal Amazonia
109,yenagoa,NG,4.92,6.26,Aridolf Resort Wellness and Spa
110,helena,US,46.59,-112.04,Delta Hotels by Marriott Helena Colonial
111,cabo san lucas,MX,22.89,-109.91,Welk Resorts Cabo San Lucas
112,santa maria,BR,-29.68,-53.81,Itaimbé Palace
113,labuhan,ID,-6.88,112.21,
114,qaanaaq,GL,77.48,-69.36,Qaanaaq Hotel
115,turukhansk,RU,65.82,87.98,"ООО ""Туруханская пушнина"""
116,luderitz,,-26.65,15.16,Kairos Cottage
117,yumen,CN,40.28,97.2,
118,mount isa,AU,-20.73,139.5,Burke & Wills Motel Mt Isa
119,grindavik,IS,63.84,-22.43,Mar Guesthouse
120,san quintin,MX,30.48,-115.95,Don Eddie's Landing
121,maniwaki,CA,46.38,-75.97,Centre Chateau Logue
122,praia da vitoria,PT,38.73,-27.07,Atlântida Mar Hotel
123,okha,RU,53.57,142.95,Империя
124,provideniya,RU,64.38,-173.3,
125,amravati,IN,20.93,77.75,Hotel Regency
126,katsuura,JP,35.13,140.3,Katsuura Hilltop Hotel & Residence
127,kousseri,CM,12.08,15.03,"Radisson Blu Hotel, N'Djamena"
128,plettenberg bay,ZA,-34.05,23.37,The Dunes Hotel & Resort
129,osa,RU,57.28,55.46,"Oilman, hotel"
130,paungde,MM,18.48,95.5,ရွှေလွန်းပျံ ဧည့်ရိပ်သာ
131,cairns,AU,-16.92,145.77,"Shangri-La Hotel, The Marina, Cairns"
132,maceio,BR,-9.67,-35.74,Jatiúca Hotel & Resort
133,upernavik,GL,72.79,-56.15,Café de Upernavik
134,mumford,GH,5.26,-0.76,Blue Diamond Beach and Spa Resort
135,rudnyy,KZ,52.96,63.12,Gostinitsa Troya
136,new norfolk,AU,-42.78,147.06,Tynwald Willow Bend Estate
137,srandakan,ID,-7.94,110.25,Puri Brata
138,grand gaube,MU,-20.01,57.66,LUX Grand Gaube Resort & Villas
139,codrington,AU,-38.27,141.97,Codrington Gardens Bed And Breakfast
140,hillsboro,US,45.52,-122.99,Econo Lodge Inn & Suites Hillsboro - Portland West
141,bereda,ES,43.27,-7.54,Casa Grande de Anllo
142,airai,TL,-8.93,125.41,
143,marquette,US,46.53,-87.63,Magnuson Hotel Country Inn
144,gifhorn,DE,52.48,10.55,Meyers Hofcafé und Pension
145,jiayuguan,CN,39.82,98.3,Taihe Hotel Jiayuguan
146,marawi,PH,8.0,124.29,Marawi Resort Hotel
147,capanema,BR,-1.2,-47.18,Hotel Legal
148,saravan,AM,39.72,45.65,
149,buraydah,SA,26.33,43.98,Mövenpick Hotel Qassim
150,ribeira grande,PT,38.52,-28.7,Quinta Das Buganvílias
151,san roque,ES,36.21,-5.38,Hotel Guadacorte Park
152,teya,RU,60.38,92.63,
153,mayo,US,38.89,-76.51,
154,guerrero negro,MX,27.98,-114.06,Hotel Los Caracoles
155,san carlos,VE,9.66,-68.58,Hotel Paternopoli
156,beloha,MG,-25.17,45.05,
157,longyearbyen,SJ,78.22,15.64,Coal Miners' Cabin
158,ponta do sol,PT,32.67,-17.1,Hotel Da Vila
159,sibiti,CG,-3.68,13.35,Hotel Saint Pierre
160,arman,RU,59.7,150.17,
161,nome,US,64.5,-165.41,Aurora Inn & Suites
162,kribi,CM,2.95,9.92,Hôtel SAMAKI Plage
163,kahului,US,20.89,-156.47,Maui Beach Hotel
164,rocha,UY,-34.48,-54.33,Casa Rodo 53
165,ewo,CG,-0.87,14.82,Hotel D'Ewo
166,tarauaca,BR,-8.16,-70.77,Ouro Hotel
167,alofi,NU,-19.06,-169.92,Taloa Heights
168,lata,PT,40.16,-8.33,Magnolias Cottage
169,yokadouma,CM,3.52,15.05,Hotel Elephant
170,port elizabeth,ZA,-33.92,25.57,Millbury Guesthouse
171,bousse,BF,12.66,-1.89,
172,mehamn,NO,71.04,27.85,Mehamn Arctic Hotel AS
173,union,US,40.63,-74.27,Hotel Executive Suites
174,butaritari,KI,3.07,172.79,Isles Sunset Lodge
175,kismayo,SO,-0.36,42.55,Kismayo Hotel
176,umm lajj,SA,25.02,37.27,عروس الشاطئ للوحدات السكنية المفروشة
177,kolokani,ML,13.57,-8.03,
178,sao filipe,CV,14.9,-24.5,Hotel Savana
179,puerto leguizamo,CO,-0.19,-74.78,la casona de juancho
180,douglas,US,41.3,-96.17,Hilton Garden Inn Omaha West
181,east london,ZA,-33.02,27.91,Blue Lagoon Hotel
182,port lincoln,AU,-34.73,135.87,Port Lincoln Hotel
183,arraial do cabo,BR,-22.97,-42.03,Hotel da Canoa
184,oranjemund,,-28.55,16.43,
185,muli,MV,2.92,73.57,Holiday Inn Veyvah Maldives
186,kloulklubed,PW,7.04,134.26,The Adventures Inn-Peleliu
187,mahebourg,MU,-20.41,57.7,Preskil Island Resort
188,kapaa,US,22.08,-159.32,Sheraton Kauai Resort at Coconut Beach
189,borogontsy,RU,62.67,131.17,
190,newport,GB,51.59,-3.0,The Celtic Manor Resort
191,zhigansk,RU,66.77,123.37,
192,sisimiut,GL,66.94,-53.67,Hotel Sisimiut
193,ixtapa,MX,20.7,-105.2,Flamingo Vallarta Hotel & Marina
194,beringovskiy,RU,63.05,179.32,
195,esil,KZ,51.96,66.4,Egorkino Hotel
196,desbiens,CA,48.42,-71.95,Maison Zacharie
197,bowmore,US,34.94,-79.3,
198,saldanha,ZA,-33.01,17.94,Fijnbosch Luxury Apartments Jacobsbaai
199,balikpapan,ID,-1.27,116.83,Novotel Balikpapan
200,lagoa,PT,39.05,-27.98,Hotel Ilha Graciosa
201,nara,JP,34.69,135.8,DAIWA ROYAL HOTEL D-PREMIUM NARA
202,parry sound,CA,45.35,-80.03,Parry Sound Inn & Suites
203,kavieng,PG,-2.57,150.8,Nusa Island Retreat
204,savannah bight,HN,16.45,-85.85,Hotel Guanaja
205,san patricio,MX,19.22,-104.7,Hotel Trivento
206,tuatapere,NZ,-46.13,167.68,Waiau Hotel
207,road town,VG,18.42,-64.62,Castle Maria
208,merauke,ID,-8.47,140.33,
209,parrita,CR,9.52,-84.32,Clandestino Beach Resort
210,ahipara,NZ,-35.17,173.17,Ahipara Bay Motel
211,raudeberg,NO,61.99,5.14,Ulvesund FYR
212,lorengau,PG,-2.02,147.27,Seeadler Bay Hotel
213,san policarpo,PH,12.18,125.51,Bahay ni Singkit
214,victoria,HK,22.29,114.16,"Dorsett Mongkok, Hong Kong"
215,kargasok,RU,59.06,80.86,Gostinitsa Grenada
216,lavrentiya,RU,65.58,-171.0,
217,channarayapatna,IN,12.9,76.39,CAPITAL O70933 S Dot Boarding & Lodging
218,maple creek,CA,49.92,-109.48,Cobble Creek Lodge
219,kerouane,GN,9.27,-9.02,
220,walvis bay,,-22.96,14.51,IRIS Boutique Hotel & Restaurant
221,richards bay,ZA,-28.78,32.04,Splendid Inn Bayshore
222,cidreira,BR,-30.18,-50.21,Pond Country Club
223,phangnga,TH,8.45,98.53,Thaweesuk Hotel Tham Nam Phut Phang-nga
224,nanortalik,GL,60.14,-45.24,Hotel Kap Farvel
225,kyzyl-suu,KG,42.34,78.0,Gostinitsa Nur-Ordo
226,sao jose da coroa grande,BR,-8.9,-35.15,Pousada Barra Velha
227,frolovo,RU,49.77,43.66,Oazis
228,kudahuvadhoo,MV,2.67,72.89,Hotel Riu Atoll
229,mitu,CO,1.2,-70.17,
230,baie-comeau,CA,49.22,-68.15,Le Grand Hôtel
231,sao desiderio,BR,-12.36,-44.97,Pousada Ecológica do Brasília
232,dukhovshchina,RU,55.19,32.41,
233,kailua,US,21.4,-157.74,
234,ponta delgada,PT,37.73,-25.67,VIP Executive Azores Hotel
235,korla,CN,41.76,86.15,Silver Star Hotel
236,jalgaon,IN,21.02,75.57,Hotel Royal Palace
237,vao,NC,-22.67,167.48,OURE TERA beach resort
238,nokaneng,BW,-19.67,22.27,
239,sivas,TR,39.79,37.0,Sultan Hotel - Restaurant
240,ola,RU,59.58,151.28,
241,lancaster,US,40.25,-76.25,Twin Pine Manor Bed & Breakfast
242,banyo,CM,6.75,11.82,Dream City Hotel Banyo
243,tuktoyaktuk,CA,69.45,-133.04,Hunter's B&B
244,muravlenko,RU,63.79,74.52,E-Hotel Muravlenko
245,leningradskiy,RU,69.38,178.42,
246,puerto escondido,MX,15.85,-97.07,Aldea del Bazar Hotel and Spa
247,hasaki,JP,35.73,140.83,Inubosaki Kanko Hotel
248,turayf,SA,31.67,38.66,Golden Dune Hotel
249,rubi,ES,41.49,2.03,Hotel Sant Cugat
250,lubao,PH,14.92,120.55,Pradera Verde
251,shakhtinsk,KZ,49.71,72.59,Гостинично -развлекательный комплекс «Табыс»
252,dunedin,NZ,-45.87,170.5,Distinction Dunedin Hotel
253,kholm,RU,59.27,32.85,
254,wahpeton,US,46.27,-96.61,Baymont by Wyndham Wahpeton
255,deputatskiy,RU,69.3,139.9,
256,pacific grove,US,36.62,-121.92,Hyatt Regency Monterey Hotel And Spa On Del Monte Golf Course
257,inhambane,MZ,-23.86,35.38,Hotel Casa Do Capitão
258,bonoua,CI,5.27,-3.6,Prestige Hôtel
259,nabire,ID,-3.37,135.48,Hotel Grand Papua Nabire
260,nantucket,US,41.28,-70.1,Harborview Nantucket
261,gizo,SB,-8.1,156.84,Oravae Island Cottages
262,mount gambier,AU,-37.83,140.77,The Old Mount Gambier Gaol
263,flin flon,CA,54.77,-101.86,Royal Hotel
264,esperance,AU,-33.87,121.9,Esperance Seafront Holiday Units
265,gasa,PS,31.5,34.47,فندق جراند بالاس Grand Palace Hotel
266,ocos,GT,14.51,-92.19,
267,ushtobe,KZ,45.25,77.98,
268,bambous virieux,MU,-20.34,57.76,Laguna Beach Hotel & Spa
269,akhtanizovskaya,RU,45.32,37.1,Guesthouse Chateau Zali
270,punta alta,AR,-38.88,-62.07,Hotel Barcelona Center - Restaurant & Confitería
271,yatou,CN,37.15,122.38,Rongcheng Jiaotong Hotel
272,wau,SS,7.7,28.0,Universal Gab Hotel
273,bilibino,RU,68.05,166.44,Profilaktoriy Baes
274,lengshuitan,CN,26.41,111.6,Gelin Holiday Inn
275,sept-iles,CA,50.2,-66.38,Château Arnaud
276,matagami,CA,49.75,-77.63,Hôtel Matagami
277,bogatyye saby,RU,56.01,50.45,Gostinitsa Kolos
278,isangel,VU,-19.55,169.27,Tanna Ikamir Bungalows and Accommodation
279,thompson,CA,55.74,-97.86,Best Western Thompson Hotel & Suites
280,leshukonskoye,RU,64.9,45.76,Gostinitsa Mup Zhkkh
281,kuminskiy,RU,58.67,66.57,
282,touros,BR,-5.2,-35.46,Bugaendrus Paradise
283,derzhavinsk,KZ,51.1,66.32,Gostinitsa Galaktika
284,shakawe,BW,-18.37,21.85,Athoma Guest House
285,araouane,ML,18.9,-3.53,
286,aljezur,PT,37.32,-8.8,Aljezur Villas Hostel
287,severo-kurilsk,RU,50.68,156.12,Kak Doma
288,pudozh,RU,61.81,36.53,Karelonego Inn
289,denia,ES,38.84,0.11,Hotel El Raset
290,bethel,US,41.37,-73.41,Hampton Inn Danbury
291,balgazyn,RU,51.0,95.2,
292,presidencia roque saenz pena,AR,-26.79,-60.44,Hotel Gualok
293,poum,NC,-20.23,164.02,
294,caraz,PE,-9.05,-77.81,IntiRumi Inn
295,villarrica,PY,-25.75,-56.43,Hotel Musa
296,saint-philippe,RE,-21.36,55.77,Pinpin d'Amour
297,ostrovnoy,RU,68.05,39.51,
298,namatanai,PG,-3.67,152.43,Namatanai Hotel
299,igrim,RU,63.19,64.42,
300,half moon bay,US,37.46,-122.43,Beach House - Half Moon Bay
301,mildura,AU,-34.2,142.15,Quality Hotel Mildura Grand
302,oxbow,CA,49.23,-102.17,Bow Manor Motor Hotel
303,anadyr,RU,64.75,177.48,Chukotka hotel
304,urumqi,CN,43.8,87.6,JinJiang International Hotel Urumqi
305,alenquer,BR,-1.94,-54.74,Detinha Hotel
306,visby,SE,57.64,18.3,Clarion Hotel Wisby
307,narsaq,GL,60.92,-46.05,Hotel Narsaq
308,kaliua,TZ,-5.06,31.79,GARDENIA RODGE
309,yerbogachen,RU,61.28,108.01,
310,aksu,CN,41.12,80.26,Tianyuan International Hotel
311,la ronge,CA,55.1,-105.28,The Harbour Inn
312,namibe,AO,-15.2,12.15,Hotel ibis Styles Iu Namibe
313,manono,CD,-7.3,27.42,Hotel hewa bora
314,bangassou,CF,4.74,22.82,
315,diego de almagro,CL,-26.37,-70.05,hotel luna del desierto
316,alpena,US,45.06,-83.43,Holiday Inn Express & Suites Alpena - Downtown
317,esso,RU,55.93,158.7,Guest house Grushanka
318,vardo,NO,70.37,31.11,Meieriet Restaurant
319,nanzhang,CN,31.78,111.84,Peace Hotel
320,ouadda,CF,8.08,22.4,
321,iwanai,JP,42.97,140.51,いわない高原ホテル
322,vila,PT,42.03,-8.16,Moinho do Poço Verde
323,terbuny,RU,52.14,38.28,
324,finschhafen,PG,-6.6,147.87,Cossam Guest House
325,fort nelson,CA,58.81,-122.7,Lakeview Inns & Suites - Fort Nelson
326,san pedro,PH,14.35,121.02,Palines Apartment and Guesthouse
327,cochrane,CA,51.18,-114.47,Rockyview Hotel
328,awbari,LY,26.59,12.78,
329,chernyshevskiy,RU,63.01,112.47,
330,staryy nadym,RU,65.61,72.68,
331,potosi,BO,-19.58,-65.75,Hostal Colonial
332,virginia beach,US,36.85,-75.98,Hilton Virginia Beach Oceanfront
333,orlik,RU,52.52,99.83,Gostevoy Dom Mini Gostinitsa
334,sungaipenuh,ID,-2.08,101.38,DHEADITA Hotel
335,colares,PT,38.8,-9.45,Arribas Sintra Hotel
336,jiazi,CN,22.88,116.07,Hotel Jin Hao
337,ransang,PH,8.96,117.58,
338,souillac,MU,-20.52,57.52,Auberge de Saint-Aubin
339,manturovo,RU,58.34,44.76,"The hotel complex ""Aquarius"""
340,zdvinsk,RU,54.7,78.66,Hotel Siberia
341,xinyu,CN,27.8,114.93,Rongcheng Hotel
342,sitka,US,57.05,-135.33,Aspen Suites Hotel Sitka
343,coquimbo,CL,-29.95,-71.34,Apart Hotel La Fuente
344,wamba,NG,8.93,8.6,Roma Zee Guest House Annex
345,moron,AR,-34.65,-58.62,Hotel Cabildo
346,hambantota,LK,6.12,81.12,
347,sioux lookout,CA,50.1,-91.92,Sunset Inn & Suites
348,skovorodino,RU,53.98,123.92,Smak
349,kamenka,RU,51.32,42.77,
350,colac,AU,-38.33,143.58,Otway Gate Motel
351,sibolga,ID,1.74,98.78,Prima Indah Hotel
352,camopi,GF,3.17,-52.32,
353,tiksi,RU,71.69,128.87,Arktika
354,terrak,NO,65.09,12.37,Terråk Gjestegård
355,dwarka,IN,22.24,68.97,The Fern Sattva Hotel & Resort Dwarka
356,nova vcelnice,CZ,49.24,15.07,Pernštejnův statek
357,kavaratti,IN,10.57,72.64,Bismillah Hotel And Lodging
358,kruisfontein,ZA,-34.0,24.73,
359,omsukchan,RU,62.53,155.8,Restoran Zori
360,mangrol,IN,21.12,70.12,Kaveri Hotel
361,tasiilaq,GL,65.61,-37.64,Hotel Angmagssalik
362,evanston,US,42.04,-87.69,Holiday Inn Chicago North-Evanston
363,hofn,IS,64.25,-15.21,Milk Factory
364,mecca,SA,21.43,39.83,Pullman Zamzam Makkah
365,petropavlivka,UA,48.46,36.44,
366,pevek,RU,69.7,170.31,Severnoye Zoloto
367,agadir,MA,30.42,-9.6,Sofitel Agadir Royal Bay Resort
368,acarau,BR,-2.89,-40.12,Hotel Acaraú Riviera
369,blackwater,AU,-23.58,148.88,Blackwater Central Motel
370,belaya gora,RU,68.53,146.42,
371,baruun-urt,MN,46.68,113.28,Orgin Hotel
372,mudgee,AU,-32.59,149.59,Evanslea Luxury Boutique Accommodation Mudgee
373,nicoya,CR,10.15,-85.45,Hotel Nicoya
374,bubaque,GW,11.28,-15.83,Ponta Anchaca
375,tefe,BR,-3.35,-64.71,Stylos Hall Hotel
376,pierre,US,44.37,-100.35,Clubhouse Hotel & Suites
377,bathsheba,BB,13.22,-59.52,Rest Haven Beach Cottages
378,brae,GB,60.4,-1.35,Busta House Hotel
379,muscat,OM,23.61,58.59,OYO 103 Hotel Golden Oasis
380,kaitangata,NZ,-46.28,169.85,
381,finnsnes,NO,69.23,17.98,Finnsnes Hotel - A SNR Hotel
382,vanimo,PG,-2.67,141.3,Sandaun Surf Hotel
383,opuwo,,-18.06,13.84,Opuwo Country Lodge
384,talnakh,RU,69.49,88.4,Talnakh Hotel
385,pozo colorado,PY,-23.49,-58.8,Hospedaje la Amistad
386,fuling,CN,29.7,107.39,Chongqing Fuling Jinke Grand Hotel
387,oktyabrskoye,RU,43.06,44.74,Aleksandrovskiy
388,urgut,UZ,39.4,67.24,SAFAR ali HOTEL
389,christchurch,NZ,-43.53,172.63,BreakFree on Cashel Christchurch
390,le port,RE,-20.94,55.29,
391,mandera,KE,3.94,41.87,Granada Hotel Mandera
392,piacabucu,BR,-10.41,-36.43,Pousada Raizes
393,coahuayana,MX,18.73,-103.68,Hotel Posada Navideña
394,markova,UA,48.68,24.41,
395,tutoia,BR,-2.76,-42.27,Hotel Costa do Delta
396,fortuna,US,40.6,-124.16,THE REDWOOD RIVERWALK HOTEL
397,alzamay,RU,55.56,98.66,U Petra
398,geraldton,AU,-28.77,114.6,Ocean Centre Hotel
399,san vicente,AR,-26.62,-54.13,Hotel Y Restaurante Los Lapachos
400,amapa,BR,1.0,-52.0,
401,neka,IR,36.65,53.3,Hotel Milad Neka
402,kichera,RU,55.94,110.1,
403,ust-nera,RU,64.57,143.2,Gostevoy Dom
404,sesheke,ZM,-17.48,24.3,Caprivi Cabins River Lodge
405,muroto,JP,33.28,134.15,Misaki Kanko Hotel
406,matay,EG,28.42,30.78,
407,westport,US,41.14,-73.36,Hilton Garden Inn Norwalk
408,belmonte,BR,-15.86,-38.88,Pousada Rio
409,abu dhabi,AE,24.47,54.37,Jumeirah At Etihad Towers
410,ipaba,BR,-19.41,-42.42,
411,silopi,TR,37.25,42.47,Grand Hotel
412,birjand,IR,32.87,59.22,Sepehr Hotel
413,alta floresta,BR,-9.88,-56.09,Floresta Amazonica Hotel
414,kirakira,SB,-10.45,161.92,
415,pahrump,US,36.21,-115.98,Pahrump Nugget
416,rudraprayag,IN,30.28,78.98,Hotel Mandakini
417,tarko-sale,RU,64.92,77.78,"Mini-hotel ""Siberia"""
418,aykhal,RU,66.0,111.5,
419,port-gentil,GA,-0.72,8.78,Jimmy Hotel
420,irtyshskiy,RU,58.33,68.13,
421,yulara,AU,-25.24,130.99,Sails in the Desert
422,koumac,NC,-20.57,164.28,Hotel Karem Bay
423,kigorobya,UG,1.62,31.31,
424,berlevag,NO,70.86,29.09,Berlevåg camping & Appartement AS
425,chuy,UY,-33.7,-53.46,Bertelli Chuí Hotel
426,nemencine,LT,54.85,25.48,Rooms For Rent Near Vilnius
427,itaituba,BR,-4.28,-55.98,Hotel Campos
428,zhanaozen,KZ,43.3,52.8,Hotel BasTau
429,qeshm,IR,26.96,56.27,Irman BOUTIQUE HOTEL
430,pangnirtung,CA,66.15,-65.71,Auyuittuq Lodge (Inns North)
431,hammond,US,41.58,-87.5,Hampton Inn & Suites Hammond
432,goderich,CA,43.75,-81.72,Comfort Inn & Suites
433,umea,SE,63.83,20.26,U&Me Hotel
434,dudinka,RU,69.41,86.18,Hotel Viktoria
435,general jose eduvigis diaz,PY,-27.17,-58.42,
436,domoni,KM,-12.26,44.53,
437,el viejo,NI,12.66,-87.17,Hotel Los Balcones
438,general cepeda,MX,25.38,-101.45,Capital O Santa Rosa
439,faya,SA,18.39,42.45,
440,evansville,US,37.97,-87.56,DoubleTree by Hilton Evansville
441,ndele,CF,8.41,20.65,
442,constitucion,CL,-35.33,-72.42,Bed & Breakfast Sweet Dreams
443,poperinge,BE,50.85,2.69,Amfora
444,nayoro,JP,44.35,142.46,ホテルマイステイズ名寄
445,necochea,AR,-38.55,-58.74,Sur Hotel
446,kampene,CD,-3.6,26.67,
447,atar,MR,20.52,-13.05,Odar kanawal
448,saint-pierre,RE,-21.34,55.48,LODGE PALMAE
449,porto belo,BR,-27.16,-48.55,Pousada dos Ingleses
450,melville,US,40.79,-73.42,OHEKA CASTLE
451,oistins,BB,13.07,-59.53,Turtle Beach By Elegant Hotels
452,sao joao da barra,BR,-21.64,-41.05,Pousada Kactus
453,garoua boulai,CM,5.88,14.55,Hotel La Kadey 1
454,chumikan,RU,54.72,135.31,Fortuna
455,lokoja,NG,7.8,6.74,Fen Hotel
456,ripoll,ES,42.2,2.19,Hotel Solana Del Ter
457,thinadhoo,MV,0.53,72.93,
458,san ramon de la nueva oran,AR,-23.13,-64.33,Hotel Baritu
459,klaksvik,FO,62.23,-6.59,Hotel Klaksvík
460,andenes,NO,69.31,16.12,Grønnbuene Rorbu Hotel
461,salalah,OM,17.02,54.09,Salalah Gardens Hotel
462,el jicaro,GT,14.92,-89.9,
463,chitral,PK,35.85,71.79,Al Mughal Hotel
464,rushden,GB,52.29,-0.6,Travelodge Wellingborough Rushden
465,umba,RU,66.69,34.34,Cedar Grass Beloye More
466,pulaski,US,34.77,-92.3,Little Rock Marriott
467,caibarien,CU,22.52,-79.47,Hotel Brisas del Mar
468,boundiali,CI,9.52,-6.49,IMAN S HOTEL
469,tamiahua,MX,21.27,-97.45,Mission Of The Sun Hotel
470,riviere-au-renard,CA,49.0,-64.4,Gîte du Renard
471,beoumi,CI,7.67,-5.58,
472,nova olimpia,BR,-14.8,-57.29,Hotel Pantanal
473,karasburg,,-28.02,18.75,Sunset Chalets
474,atambua,ID,-9.11,124.89,Hotel Timor
475,bilma,NE,18.69,12.92,
476,katobu,ID,-4.94,122.53,Balai Desa Kafofo
477,dakar,SN,14.69,-17.44,"Radisson Blu Hotel, Dakar Sea Plaza"
478,clyde river,CA,70.47,-68.59,Naujaaraaluit – Clyde River Hotel
479,pimentel,PE,-6.84,-79.93,Hotel Puerto del Sol
480,imeni zhelyabova,RU,58.95,36.6,
481,yablonovo,RU,50.85,37.36,
482,lazaro cardenas,MX,17.96,-102.2,Hotel de Casablanca
483,yar-sale,RU,66.83,70.83,"Hotel ""Nord House"""
484,selenginsk,RU,52.01,106.86,Kafe
485,broome,US,42.25,-75.83,
486,baiyin,CN,36.56,104.21,Baiyin Hotel
487,lompoc,US,34.64,-120.46,Embassy Suites by Hilton Lompoc Central Coast
488,comodoro rivadavia,AR,-45.87,-67.5,Lucania Palazzo Hotel
489,hovd,MN,48.01,91.64,Minj Hotel
490,haljala,EE,59.43,26.26,
491,omboue,GA,-1.57,9.26,Hôtel Georges Faustin Aurat
492,port hardy,CA,50.7,-127.42,Glen Lyon Inn
493,kungurtug,RU,50.6,97.52,
494,bukachacha,RU,52.98,116.92,
495,mali,GN,12.08,-12.3,Hotel La Dame de Mali
496,mladenovac,RS,44.44,20.7,Selters Spa
497,viedma,AR,-40.81,-63.0,Alta Patagonia Apart
498,lahat,ID,-3.8,103.53,HOTEL GRAND SIGMA
499,saint anthony,US,45.02,-93.22,The Grand Hotel Minneapolis
500,bealanana,MG,-14.55,48.73,
501,crotone,IT,39.09,17.12,ESTES B&B
502,zamania,IN,25.43,83.57,
503,nauta,PE,-4.51,-73.58,Hospedaje Plaza Inn
504,bac lieu,VN,9.29,105.72,Hotel Royal
505,vuktyl,RU,63.86,57.31,Mini-Hotel Lokomotiv
506,postrelmov,CZ,49.91,16.91,Habermannova Vila
507,gokak,IN,16.17,74.83,The Landmark Hotel
508,fort-shevchenko,KZ,44.51,50.26,Dostyk Hotel
509,broken hill,AU,-31.95,141.43,ibis Styles Broken Hill
510,mayor pablo lagerenza,PY,-19.93,-60.77,
511,puerto carreno,CO,6.19,-67.49,HOTEL TIERRA AZUL
512,dumbrava,RO,44.88,26.18,
513,sabha,LY,27.04,14.43,فندق المواجيد
514,winnemucca,US,40.97,-117.74,Best Western Plus Gold Country Inn
515,monterey,US,36.25,-121.25,
516,vestmanna,FO,62.16,-7.17,Budget Guesthouse Borgustova
517,tavatuy,RU,57.07,60.13,
518,harrisburg,US,40.27,-76.88,Radisson Hotel Harrisburg
519,chifeng,CN,42.27,118.96,Movenpick Hotel & State Guest House Chifeng
520,maraba,BR,-5.37,-49.12,Itacaiúnas Hotel
521,huarmey,PE,-10.07,-78.15,Hotel Miramar
522,tomatlan,MX,19.93,-105.25,Hotel Misión San Miguel
523,aklavik,CA,68.22,-135.01,Sundog Inn
524,pisco,PE,-13.7,-76.22,Embassy Beach
525,atasu,KZ,48.68,71.64,
526,valparaiso,CL,-33.04,-71.63,Hotel Palacio Astoreca
527,los llanos de aridane,ES,28.66,-17.92,Hotel Hacienda de Abajo
528,balsas,BR,-7.53,-46.04,Mais Hotel
529,guiratinga,BR,-16.35,-53.76,Ópera Palace Hotel
530,keti bandar,PK,24.14,67.45,
531,cacapava do sul,BR,-30.51,-53.49,KARLTON HOTEL
532,baykit,RU,61.67,96.37,
533,marion,US,39.77,-86.16,Hilton Garden Inn Indianapolis Downtown
534,pervomayskiy,RU,53.25,40.29,
535,baruni,IN,25.48,85.98,Hotel Yuvraj Deluxe
536,laguna de perlas,NI,12.34,-83.67,Casa Blanca
537,jalalabad,AF,34.43,70.45,Afghan Shahi
538,lalibela,ET,12.03,39.03,Sora Lodge Lalibela
539,chimoio,MZ,-19.12,33.48,Hotel Castelo Branco
540,dzhebariki-khaya,RU,62.22,135.8,
541,belem de sao francisco,BR,-8.75,-38.97,Village Hotel
542,port moresby,PG,-9.44,147.18,Hilton Port Moresby
543,bonavista,CA,48.65,-53.11,Butler's By the Sea B&B
544,arcachon,FR,44.59,-1.05,Villa Bora Bora
545,bosaso,SO,11.28,49.18,Gacayte Hotel
546,vyartsilya,RU,62.18,30.69,Hotelli Joki
547,acajutla,SV,13.59,-89.83,Villavela Hotel Boutique
548,elizabeth city,US,36.29,-76.25,Fairfield Inn & Suites by Marriott Elizabeth City
549,methoni,GR,36.82,21.7,ACHILLES HILL HOTEL
550,hay river,CA,60.82,-115.8,Eileen's Bed & Breakfast - Guest House
551,jalu,LY,29.03,21.55,Jalu Hotel
552,kabompo,ZM,-13.59,24.2,Chidikumbidi Lodge
553,ginda,IN,30.69,78.49,Hotel KNB Heritage
554,bulungu,CD,-4.55,18.6,
555,athabasca,CA,54.72,-113.29,Days Inn by Wyndham Athabasca
556,zyryanka,RU,65.75,150.85,
557,gavle,SE,60.67,17.14,Elite Grand Hotel
558,yaguajay,CU,22.33,-79.24,Hostal Fuente Verde
559,sidi ali,DZ,36.1,0.42,
560,belogorsk,RU,50.92,128.46,Gold mill
561,somerset,US,40.57,-74.55,"Somerset Lofts, an Ascend Hotel Collection Member"
562,roros,NO,62.57,11.38,Erzscheidergården
563,lyuban,BY,52.8,28.0,
564,annau,TM,37.89,58.52,
565,rawson,AR,-43.3,-65.1,Hotel Punta León
566,carutapera,BR,-1.2,-46.02,HOTEL R. SOARES
567,dhidhdhoo,MV,6.88,73.1,
568,oriximina,BR,-1.77,-55.87,Hotel Mapuera
569,haukipudas,FI,65.18,25.35,Samantta Hotel & Restaurant
570,kenora,CA,49.82,-94.43,Hidden Trail Resort
571,launceston,AU,-41.45,147.17,Hotel Grand Chancellor Launceston
572,prado,BR,-17.34,-39.22,Cahy Praia Hotel
573,menlo park,US,40.52,-74.41,Hilton East Brunswick Hotel & Executive Meeting Center
574,herat,AF,34.5,62.0,
575,gouyave,GD,12.16,-61.73,Mount Edgecombe Plantation
576,mariel,CU,22.99,-82.75,
577,san jeronimo,PE,-11.95,-75.28,
578,okhotsk,RU,59.38,143.3,Prozhivaniye V Okhotske
579,shimoda,JP,34.67,138.95,Shimoda Prince Hotel
580,palmer,US,42.16,-72.33,The Trainmaster's Inn
581,lasa,IT,46.62,10.7,Untertelshof
582,bayir,TR,37.27,28.22,
583,embonas,GR,36.23,27.86,Hotel Ataviros
584,vicuna,CL,-30.03,-70.71,Rucka-Inn Cottages & Domes
585,dong hoi,VN,17.48,106.6,Vinpearl Hotel Quảng Bình
